{
  "bankSampahLocations": [
    {
      "coords": [-3.2796021668539375, 114.5775595814034],
      "name": "Bank Sampah Induk",
      "address": "Jl. Hksn, Alalak Utara, Kec. Banjarmasin Utara",
      "hours": "09.00-16.30"
    },
    {
      "coords": [-3.291004812996148, 114.59732906036426],
      "name": "Bank Sampah Kunang Kunang",
      "address": "Jalur II A No.42, Sungai Miai, Kec. Banjarmasin Utara"
    },
    {
      "coords": [-3.302690637817468, 114.60658174002991],
      "name": "Bank Sampah Kenanga",
      "address": "Jl. Sultan Adam, Sungai Jingah, Kec. Banjarmasin Utara",
      "hours": "Sabtu (15.30-17.30)<br>Minggu (08.30-10.00)"
    },
    {
      "coords": [-3.311371447104756, 114.6127130338623],
      "name": "Bank Sampah Lestari",
      "address": "Jl. 9 Nopember, Benua Anyar, Kec. Banjarmasin Timur",
      "hours": "Sabtu (07.00-09.00)"
    },
    {
      "coords": [-3.314821491213811, 114.61683772244048],
      "name": "Bank Sampah Mitra 19",
      "address": "Komplek A Yani 1, Jl. Veteran No.01, Pengambangan, Kec. Banjarmasin Timur"
    },
    {
      "coords": [-3.3329618474687943, 114.59064037606562],
      "name": "Bank Sampah Morse Indah",
      "address": "Jl. 09 Oktober Gg. Moroseneng No.59, RT.24/RW.02, Pekauman, Kec. Banjarmasin Selatan"
    },
    {
      "coords": [-3.328510257200677, 114.60992608212031],
      "name": "Bank Sampah Palui",
      "address": "GG.pintu air, Jl. Karang Paci, Karang Mekar, Kec. Banjarmasin Timur"
    },
    {
      "coords": [-3.349828748287562, 114.59690065171083],
      "name": "Bank Sampah Mahatama RT 23",
      "address": "Komplek Graha Mahatama, Jl. Mangga VII No.147, RT.23/RW.02, Tj. Pagar, Kec. Banjarmasin Selatan",
      "hours": "Sabtu (08.00-12.00)"
    },
    {
      "coords": [-3.3110445032712317, 114.60994788623515],
      "name": "Bank Sampah Tugu Benua Anyar",
      "address": "Jl. Kol Soepirman No.36 Benua Anyar Kec. Banjarmasin Timur",
      "hours": "08.00-11.00"
    }
  ],
  "tpsLocations": [
    {
      "coords": [-3.2732786310341453, 114.59676913557503],
      "name": "TPS Terminal Handil",
      "address": "Jl. Trans - Kalimantan, Handil Bakti, Kec. Alalak",
      "hours": "24 Jam"
    },
    {
      "coords": [-3.2877837800741623, 114.59431353706479],
      "name": "TPS Cemara",
      "address": "Jl. Cemara Raya No.60, Sungai Miai, Kec. Banjarmasin Utara"
    },
    {
      "coords": [-3.296568486141781, 114.60495446394262],
      "name": "TPS Surgi Mufti",
      "address": "Gedung Taekwondo, Samping Jl. Sultan Adam, Surgi Mufti",
      "hours": "24 Jam"
    },
    {
      "coords": [-3.316793444387024, 114.62296218635124],
      "name": "TPS Vetran",
      "address": "Jl. Veteran Komp. A. Yani No.3, RT.11/RW.11, Pengambangan, Kec. Banjarmasin Timur"
    },
    {
      "coords": [-3.2855365172482327, 114.61047956059072],
      "name": "TPS Kayu Bulan",
      "address": "Jl. Sungai Andai Komp. Kayu Bulan No.29, Sungai Jingah, Kec. Banjarmasin Utara"
    },
    {
      "coords": [-3.365004803032881, 114.58060311230457],
      "name": "TPA Basirih",
      "address": "Jl. Gubernur Soebardjo Jl. Handil Palung No.Kel, Basirih Selatan, Kec. Banjarmasin Selatan",
      "hours": "Tutup Sementara"
    },
    {
      "coords": [-3.223346314451889, 114.61937099386807],
      "name": "TPS Puntik",
      "address": "Jl. Banjarmasin - Marabahan, Handil Bakti, Kec. Alalak",
      "hours": "24 Jam"
    }
  ]
}